{
  "cities": [

      {
          "city": "Paris",
          "image_link": "https://images.unsplash.com/photo-1431274172761-fca41d930114?q=80&w=2070&auto=format&fit=crop&ixlib=rb-4.0.3&ixid=M3wxMjA3fDB8MHxwaG90by1wYWdlfHx8fGVufDB8fHx8fA%3D%3D",
          "country": "FR",
          "lat": 48.8566,
          "lng": 2.3522
      },
      {
          "city": "New York",
          "image_link": "https://upload.wikimedia.org/wikipedia/commons/4/47/New_york_times_square-terabass.jpg",
          "country": "US",
          "lat": 40.7128,
          "lng": -74.0060
      },
      {
          "city": "Tokyo",
          "image_link": "https://images.unsplash.com/photo-1536098561742-ca998e48cbcc?q=80&w=2036&auto=format&fit=crop&ixlib=rb-4.0.3&ixid=M3wxMjA3fDB8MHxwaG90by1wYWdlfHx8fGVufDB8fHx8fA%3D%3D",
          "country": "JP",
          "lat": 35.6895,
          "lng": 139.6917
      },
      {
          "city": "London",
          "image_link": "https://images.unsplash.com/photo-1500380804539-4e1e8c1e7118?q=80&w=2070&auto=format&fit=crop&ixlib=rb-4.0.3&ixid=M3wxMjA3fDB8MHxwaG90by1wYWdlfHx8fGVufDB8fHx8fA%3D%3D",
          "country": "GB",
          "lat": 51.5074,
          "lng": -0.1278
      },
      {
          "city": "Sydney",
          "image_link": "https://images.unsplash.com/photo-1549180030-48bf079fb38a?q=80&w=2127&auto=format&fit=crop&ixlib=rb-4.0.3&ixid=M3wxMjA3fDB8MHxwaG90by1wYWdlfHx8fGVufDB8fHx8fA%3D%3D",
          "country": "AU",
          "lat": -33.8688,
          "lng": 151.2093
      },
      {
          "city": "Rome",
          "image_link": "https://images.unsplash.com/photo-1526161202719-67a7615a3979?w=500&auto=format&fit=crop&q=60&ixlib=rb-4.0.3&ixid=M3wxMjA3fDB8MHxzZWFyY2h8OHx8cm9tZXxlbnwwfHwwfHx8MA%3D%3D",
          "country": "IT",
          "lat": 41.9028,
          "lng": 12.4964
      },
      {
          "city": "Dubai",
          "image_link": "https://images.unsplash.com/photo-1518684079-3c830dcef090?q=80&w=1974&auto=format&fit=crop&ixlib=rb-4.0.3&ixid=M3wxMjA3fDB8MHxwaG90by1wYWdlfHx8fGVufDB8fHx8fA%3D%3D",
          "country": "AE",
          "lat": 25.2048,
          "lng": 55.2708
      },
      {
          "city": "Berlin",
          "image_link": "https://images.unsplash.com/photo-1587330979470-3595ac045ab0?q=80&w=2070&auto=format&fit=crop&ixlib=rb-4.0.3&ixid=M3wxMjA3fDB8MHxwaG90by1wYWdlfHx8fGVufDB8fHx8fA%3D%3D",
          "country": "DE",
          "lat": 52.5200,
          "lng": 13.4050
      },
      {
          "city": "Beijing",
          "image_link": "https://plus.unsplash.com/premium_photo-1676469292218-95d6c3a036bc?w=500&auto=format&fit=crop&q=60&ixlib=rb-4.0.3&ixid=M3wxMjA3fDB8MHxzZWFyY2h8MXx8YmVpamluZ3xlbnwwfHwwfHx8MA%3D%3D",
          "country": "CN",
          "lat": 39.9042,
          "lng": 116.4074
      },
      {
          "city": "Cairo",
          "image_link": "https://images.unsplash.com/photo-1644166498629-93fb54b286ee?w=500&auto=format&fit=crop&q=60&ixlib=rb-4.0.3&ixid=M3wxMjA3fDB8MHxzZWFyY2h8MTB8fGNhaXJvfGVufDB8fDB8fHww",
          "country": "EG",
          "lat": 30.0444,
          "lng": 31.2357
      },
      {
          "city": "Bangkok",
          "image_link": "https://images.unsplash.com/photo-1508009603885-50cf7c579365?q=80&w=1950&auto=format&fit=crop&ixlib=rb-4.0.3&ixid=M3wxMjA3fDB8MHxwaG90by1wYWdlfHx8fGVufDB8fHx8fA%3D%3D",
          "country": "TH",
          "lat": 13.7563,
          "lng": 100.5018
      },
      {
        "city": "Manchester",
        "image_link": "https://images.unsplash.com/photo-1588934356018-93c066684704?q=80&w=1964&auto=format&fit=crop&ixlib=rb-4.0.3&ixid=M3wxMjA3fDB8MHxwaG90by1wYWdlfHx8fGVufDB8fHx8fA%3D%3D",
        "country": "GB",
        "lat": 53.4808,
        "lng": -2.2426
     },
     {
        "city": "Rio de Janeiro",
        "image_link": "https://images.unsplash.com/photo-1516306580123-e6e52b1b7b5f?q=80&w=2126&auto=format&fit=crop&ixlib=rb-4.0.3&ixid=M3wxMjA3fDB8MHxwaG90by1wYWdlfHx8fGVufDB8fHx8fA%3D%3D",
        "country": "BR",
        "lat": -22.9068,
        "lng": -43.1729
     },
     {
        "city": "Ho Chi Minh City",
        "image_link": "https://plus.unsplash.com/premium_photo-1690960644830-487c569ca6fa?q=80&w=1974&auto=format&fit=crop&ixlib=rb-4.0.3&ixid=M3wxMjA3fDB8MHxwaG90by1wYWdlfHx8fGVufDB8fHx8fA%3D%3D",
        "country": "VN",
        "lat": 10.7626,
        "lng": 106.6601
     },
     {
        "city": "Lisbon",
        "image_link": "https://images.unsplash.com/photo-1585208798174-6cedd86e019a?q=80&w=2073&auto=format&fit=crop&ixlib=rb-4.0.3&ixid=M3wxMjA3fDB8MHxwaG90by1wYWdlfHx8fGVufDB8fHx8fA%3D%3D",
        "country": "PT",
        "lat": 38.7166,
        "lng": -9.1332
     },
     {
        "city": "Barcelona",
        "image_link": "https://images.unsplash.com/photo-1630219694734-fe47ab76b15e?q=80&w=1952&auto=format&fit=crop&ixlib=rb-4.0.3&ixid=M3wxMjA3fDB8MHxwaG90by1wYWdlfHx8fGVufDB8fHx8fA%3D%3D",
        "country": "ES",
        "lat": 41.3888,
        "lng": 2.1589
     },
     {
        "city": "Seoul",
        "image_link": "https://images.unsplash.com/photo-1540998145333-e2eef1a9822d?q=80&w=1983&auto=format&fit=crop&ixlib=rb-4.0.3&ixid=M3wxMjA3fDB8MHxwaG90by1wYWdlfHx8fGVufDB8fHx8fA%3D%3D",
        "country": "KR",
        "lat": 37.5665,
        "lng": 126.9780
     },
     {
        "city": "Zurich",
        "image_link": "https://images.unsplash.com/photo-1620563092215-0fbc6b55cfc5?q=80&w=2071&auto=format&fit=crop&ixlib=rb-4.0.3&ixid=M3wxMjA3fDB8MHxwaG90by1wYWdlfHx8fGVufDB8fHx8fA%3D%3D",
        "country": "CH",
        "lat": 47.3769,
        "lng": 8.5417
     },
     {
        "city": "Kuala Lumpur",
        "image_link": "https://images.unsplash.com/photo-1592723905426-1181bf431d3a?q=80&w=1975&auto=format&fit=crop&ixlib=rb-4.0.3&ixid=M3wxMjA3fDB8MHxwaG90by1wYWdlfHx8fGVufDB8fHx8fA%3D%3D",
        "country": "MY",
        "lat": 3.1390,
        "lng": 101.6869
     }
     


  ]
}
